name,postcode,lat,lon,matrix_index
Aberdeen Mail Centre,AB12 3TT,57.11134,-2.094009,0
Scottish Hub,ML2 0XX,55.773369,-3.950501,1
Edinburgh Airport,EH12 0AL,55.951807,-3.350728,2
Peterhead DO,AB42 1AA,57.505728,-1.786428,3
Aberdeen LD,AB12 3TW,57.111675,-2.093754,4
OBL Services,LU7 4WG,51.906943,-0.656992,5
Fraserburgh DO,AB43 9AA,57.691035,-2.005924,6
Bridgend VOC,CF31 3YN,51.498505,-3.529458,7
Amazon Swansea Bay (CWL1) SA1 8QX,SA1 8QX,51.624588,-3.861513,8
Swansea Mail Centre,SA1 1AA,51.647984,-3.923586,9
Cardiff Mail Centre,CF11 8TA,51.465736,-3.193634,10
Newport West DO,NP20 5XX,51.591272,-2.997047,11
Ferndale DO,CF43 4HN,51.658007,-3.441993,12
Amazon Bristol (SBS2)  BS11 0YH,BS11 0YH,51.515597,-2.669393,13
South West Hub,BS35 4GG,51.549103,-2.649309,14
Bridgend CF DO,CF31 1ZZ,51.50522,-3.571166,15
Newport East DO,NP19 4AA,51.572112,-2.944682,16
Midlands Super Hub,NN6 7GZ,52.361686,-1.169689,17
Princess Royal Hub,NW10 7RH,51.541943,-0.272247,18
Birmingham Mail Centre,B6 4AA,52.495953,-1.894214,19
National Distribution Centre,NN6 7DD,52.357705,-1.159542,20
Bristol Mail Centre,BS34 7ST,51.521874,-2.572469,21
Jubilee Mail Centre,TW4 5XX,51.450964,-0.386827,22
Amazon Bristol  (BRS1)   BS35 4DJ,BS35 4DJ,51.541549,-2.641429,23
Swindon VOC,SN3 5JN,51.551186,-1.725756,24
Bristol AP (BS34 5DJ),BS34 5DJ,51.523432,-2.589773,25
Coventry National Hub,CV3 4PF,52.362665,-1.475271,26
Swansea LD,SA7 0AQ,51.673852,-3.900908,27
Newport LD,NP20 2NN,51.569987,-3.003759,28
Nisbets St Brendans BS11 9HA,BS11 9HA,51.49965,-2.68215,29
Gloucester LD,GL2 2AD,51.81331,-2.279408,30
Coventry International Hub,CV3 4PF,52.362665,-1.475271,31
Exeter Mail Centre,EX2 7XX,50.725924,-3.46406,32
East Midlands Airport,DE74 2SA,52.824724,-1.331344,33
Nisbets Main Site BS11 8TB,BS11 8TB,51.502866,-2.677101,34
Cardiff North DO,CF14 5XW,51.522153,-3.194287,35
Northern Ireland Mail Centre,BT36 4HQ,54.667769,-5.972359,36
Belfast LD,BT3 9PF,54.633,-5.892002,37
Craigavon Portadown DO,BT64 1HB,54.450943,-6.397422,38
Larne Docks,BT40 1AW,54.84812,-5.798566,39
Belfast Airport,BT29 4AB,54.662159,-6.217721,40
Belfast East BT5 And BT6 DO,BT5 6QH,54.581582,-5.872214,41
Enniskillen DO,BT74 4BA,54.352877,-7.605818,42
Belfast Docks,BT3 9SS,54.5833,-5.9333,43
Belfast North DO,BT1 1AA,54.602444,-5.922291,44
City Electrical Factors SG9 9ER,SG9 9ER,51.947556,-0.031105,45
National Return Centre,BT1 1AA,54.602444,-5.922291,46
AMAZON (STN8)  MK17 7AB,MK17 7AB,52.038988,-0.653612,47
Hereford DO,HR1 1AA,52.060745,-2.710027,48
North West Hub,WA5 3UY,53.409388,-2.669276,49
Inditex Returns (NN4 5EL),NN4 5EL,52.188158,-0.892679,50
Worcester DO,WR4 9WW,52.216261,-2.179679,51
Amazon Bardon (BHX2) (LE67 1GQ),LE67 1GQ,52.695343,-1.350602,52
PHS Direct (B46 1HQ),B46 1HQ,52.513699,-1.714164,53
Brierley Hill DO,DY5 1UD,52.484925,-2.118183,54
Pro Direct Sport,TQ12 4PQ,50.527167,-3.576258,55
Mod Donnington TF1 7AE,TF1 7AE,52.727701,-2.461029,56
Mail & Marketing Solutions  (BD4 9SW),BD4 9SW,53.773721,-1.722463,57
TTS RMER (NG15 6XJ),NG15 6XJ,53.021798,-1.213439,58
ED Logistics,ME3 8HR,51.432634,0.501194,59
World of Books  (CV3 4PW),CV3 4PW,52.367601,-1.471546,60
Screwfix ST14 8LP,ST14 8LP,52.867098,-1.801082,61
Specialist Crafts Ltd LE4 9HQ,LE4 9HQ,52.664289,-1.078722,62
Tamworth DO,B77 2BP,52.628201,-1.685171,63
Cool Solutions,HU9 1UD,53.74664,-0.308844,64
Roman Originals (B24 9QP),B24 9QP,52.526349999999994,-1.809,65
Beeswift Limited (B6 7EU),B6 7EU,52.515483,-1.892084,66
NW Midlands Mail Centre,WV1 1AA,52.588468,-2.114955,67
Amazon (EMA4) (B76 9AA),B76 9AA,52.540632,-1.776726,68
Burton On Trent DO,DE14 1BB,52.815734,-1.629188,69
Shop Direct OL9 8PW,OL9 8PW,53.534109,-2.148179,70
Hallmark LE13 1BS,LE13 1BS,52.765368,-0.868204,71
Rotherham LD,S60 1DX,53.417642,-1.383826,72
DHL Warehousing CV6 4QG ,CV6 4QG ,52.45697,-1.521568,73
Coleshill DO,B46 3BT,52.497998,-1.705935,74
Supersmart (WS9 8DT),WS9 8DT,52.603228,-1.932252,75
GSP Geodis WS13 8UR,WS13 8UR,52.708506,-1.782037,76
Slimming world  DE55 2JJ,DE55 2JJ,53.111055,-1.323768,77
Leicester Central DO,LE19 1LE,52.612912,-1.194911,78
South Midlands Mail Centre,NN4 9DR,52.215832,-0.953409,79
Leeds Mail Centre,LS10 1AZ,53.765749,-1.500514,80
CBF Fulfilment Ltd (GL1 2BX),GL1 2BX,51.869799,-2.243579,81
North West Processing Centre,PR7 7DW,53.672366,-2.646144,82
Birmingham AP Site (B98 9NA),B98 9NA,52.316387,-1.888926,83
Barnsley DO,S70 1AA,53.551618,-1.482797,84
Costco NN6 7TZ,NN6 7TZ,52.354297,-1.142253,85
Oldbury DO,B69 4AA,52.503992,-2.009061,86
Abstrakt Services Ltd,B6 4AE,52.494685,-1.883627,87
Liverpool LD,L36 6BP,53.406589,-2.819581,88
Preston Mail Centre,PR2 9GG,53.796639,-2.685008,89
FCS Lasermail B24 9QL,B24 9QL,52.510974,-1.830657,90
Basingstoke LD,RG22 6HY,51.262906,-1.113066,91
Sheffield Mail Centre,S9 2XX,53.404257,-1.430827,92
Home Counties North MC,HP2 7XX,51.76436,-0.439073,93
Nottingham Mail Centre,NG9 2RR,52.92991,-1.197821,94
Manchester Mail Centre,M4 5AA,53.487362,-2.227212,95
Amazon Redditch BHX8  (B98 9AY),B98 9AY,52.312384,-1.883664,96
Warrington Mail Centre,WA5 3XA,53.406693,-2.659532,97
Yorkshire Hub,WF6 2XX,53.719888,-1.418136,98
Chelmsford Mail Centre,CM2 5AA,51.751986,0.518441,99
Peterborough Mail Centre,PE4 5PE,52.613357,-0.286193,100
Southampton Mail Centre,SO18 2XX,50.948409,-1.362365,101
GXO Toolstation Northampton (NN4 9FJ),NN4 9FJ,52.224351,-0.965493,102
Nottingham LD,NG4 2SQ,52.959071,-1.064458,103
Moonpig Tamworth (B78 2FG),B78 2FG,52.600579,-1.636519,104
Selfridges B46 1DA,B46 1DA,52.523278,-1.709032,105
Amazon Peterborough (EUK5) PE2 9EN,PE2 9EN,52.541843,-0.23834,106
Northampton Crow Lane DO,NN3 9UB,52.247714,-0.811909,107
Bromsgrove DO,B60 3BG,52.301271,-2.013249,108
Preston LD,PR5 8AN,53.7248,-2.643492,109
Creo Fulfilment ME20 7NA,ME20 7NA,51.290369,0.471336,110
Carlisle VOC,CA3 0PP,54.923664,-2.959046,111
Carlisle Mail Centre,CA1 1AA,54.890559,-2.943791,112
Cairnryan Docks,DG9 8RF,54.96566,-5.015201,113
Perth LD,PH1 3UG,56.4159,-3.473665,114
Rotherham Services,s604eq,53.407417,-1.315018,115
Amazon NCL2  (TS22 ENG),TS22 ENG,54.587,-1.2274,116
Newton Stewart DO,DG8 6ND,54.954228,-4.489134,117
Carlisle DO,CA1 1AA,54.890559,-2.943791,118
Dumfries DO,DG1 1AA,55.069708,-3.609592,119
Penrith DO,CA11 7AA,54.662446,-2.751002,120
Annan DO,DG12 6TS,54.983859,-3.262737,121
Workington DO,CA14 2AA,54.643326,-3.561764,122
Wigton DO,CA7 9BB,54.827879,-3.161147,123
Thornhill DO,DG3 5LJ,55.24148,-3.765467,124
Loch Ryan Stranraer Docks,DG9 8RG,54.985049,-5.034797,125
Chester Mail Centre,CH1 4PA,53.192479,-2.922165,126
Glasgow Mail Centre,G21 1AA,55.874958,-4.224014,127
Cockermouth DO,CA13 9RP,54.662798,-3.366601,128
Egremont DO,CA22 2RB,54.477657,-3.526165,129
Maryport DO,CA15 8NF,54.706263,-3.502239,130
Warrington Rail Terminal,WA2 8AA,53.404444,-2.600338,131
Edinburgh Mail Centre,EH11 4YY,55.923227,-3.305134,132
Amazon Darlington  (MME1)  DL1 4PG,DL1 4PG,54.522701,-1.500682,133
Birkenhead DO,CH41 4AA,53.397057,-3.01145,134
Leyland DO,PR25 2ZB,53.700204,-2.706661,135
Diamond Comic Distributors (WA7 1SN),WA7 1SN,53.350433,-2.681482,136
Boux Avenue (CW1 6NA),CW1 6NA,53.080386,-2.418933,137
Shrewsbury AP PFW - Wednesbury BD,WS10 7DG,52.560356,-2.027172,138
Demon Tweeks LL13 9UG,LL13 9UG,53.045416,-2.925242,139
Amazon Bolton  (MAN3)  BL5 1DB,BL5 1DB,53.541352,-2.449924,140
Nisbets Access 18 BS11 8HT,BS11 8HT,51.509046,-2.682442,141
Ingram Micros NN6 7EX,NN6 7EX,52.352282,-1.159587,142
Card Factory Gate 1 WF2 0XG,WF2 0XG,53.709865,-1.521508,143
Deeside LD,Ch5 2QX,53.199713,-2.997231,144
Manchester LD,M1 2NP,53.477808,-2.221252,145
Edinburgh LD,EH11 4XX,55.926134,-3.302191,146
Amazon St Helens   (MAN8)  WA11 9FS,WA11 9FS,53.475961,-2.673442,147
Glasgow LD,G32 8NB,55.827215,-4.172123,148
Braintree DO,CM7 3SR,51.876441,0.566235,149
Bury St Edmunds DO,IP32 7YY,52.242165,0.753105,150
Brightlingsea DO,CO7 0AA,51.811528,1.024884,151
Hadleigh DO,IP7 5AA,52.043614,0.953511,152
Harlow DO,CM20 1AA,51.771744,0.093959,153
Southend On Sea DO,SS1 1AA,51.543523,0.71237,154
Romford Mail Centre,RM7 0AB,51.570143,0.170731,155
SEDC VOC,ME1 3AU,51.35889,0.495608,156
Chelmsford DO,CM2 6ZZ,51.742492,0.500602,157
Basildon DO,SS14 1AA,51.571106,0.460069,158
Sudbury DO,CO10 2GT,52.044871,0.755091,159
London Central Mail Centre,EC1A 1BB,51.524565,-0.112042,160
Seasalt (RM18 7HD),RM18 7HD,51.467442,0.34664,161
Denny Enterprises  KA13 6PT,KA13 6PT,55.644039,-4.692359,162
Amazon Tilbury RM18 7AN,RM18 7AN,51.469769,0.354018,163
Stubbins Food Partnerships EN8 7LU,EN8 7LU,51.685123,-0.026613,164
London East LD,E6 7FF,51.514824,0.085138,165
Delta Global Source LE8 6ZG,LE8 6ZG,52.561714,-1.18567,166
Ipswich LD,IP3 9SL,52.030351,1.214016,167
South East Processing Centre - Hatfield PF,AL10 9SL,51.774784,-0.250787,168
Manx Independent Carriers (WN8 9QE),WN8 9QE,53.528351,-2.748343,169
Photobox NW10 7AQ,NW10 7AQ,51.535319,-0.269975,170
Clacton On Sea DO,CO15 3ER,51.801817,1.160441,171
Ilford DO,IG1 1BX,51.558423,0.072863,172
North Essex LD,CM2 5AE,51.749268,0.519272,173
Amazon Dartford LCY3 (DA1 5PZ),DA1 5PZ,51.461235,0.247187,174
Whitechapel DO,E1 1AA,51.519018,-0.058133,175
Cambridge LD,CB1 3EZ,52.208519,0.14765,176
Greenford Mail Centre,UB6 0GG,51.540302,-0.333466,177
Harold Hill DO,RM3 8YN,51.605542,0.223874,178
Grays DO,RM17 5QB,51.480094,0.322359,179
Heathrow Worldwide DC,SL3 8AQ,51.49666,-0.532511,180
Amazon Dunstable (LTN4) LU5 4FE ,LU5 4FE,51.891158,-0.506695,181
Croydon Mail Centre,CR9 4AA,51.382348,-0.132875,182
Milton Keynes Storage,MK1 1JN,52.009902,-0.724889,183
Greenwich DO,SE10 0DP,51.489343,0.017988,184
Beckenham DO,BR3 4XX,51.396363,-0.048151,185
Bromley DO,BR1 3QH,51.408226,0.017578,186
Medway Mail Centre,ME2 2JU,51.3854,0.484761,187
LTS Distribution,B9 4PP,52.477941,-1.86535,188
London South East LD,DA1 4QX,51.462344,0.191901,189
Southwark DO,SE1 5SE,51.492762,-0.080152,190
London Central LD,NW1 0NT,51.539124,-0.133979,191
Croydon DO,CR0 3RL,51.377742,-0.11259,192
Amazon Milton Keynes (LTN1) MK43 0ZA,MK43 0ZA,52.029145,-0.592991,193
Tropic Skincare  (CR0 4TQ),CR0 4TQ,51.386219,-0.134859,194
TK Maxx (DHL) (CV23 0XF),CV23 0XF,52.406666,-1.247785,195
Tonbridge LD,TN9 1YQ,51.19414,0.292276,196
Air Canada TW6 3JJ,TW6 3JJ,51.458913,-0.466538,197
Heathrow Airport,TW6 3PR,51.459224,-0.471816,198
Cathay Pacific M90 5SA,M90 5SA,53.3635,-2.278,199
American Airlines TW4 6NF,TW4 6NF,51.473081,-0.407638,200
Dnata TW6 3ET,TW6 3ET,51.47,-0.4509,201
Guernsey Docks,GY1 2NA,49.4598,-2.5353,202
Albert Johnson Quay PO2 7AE,PO2 7AE,50.809928,-1.087992,203
Swissport TW6 3PR,TW6 3PR,51.459224,-0.471816,204
Dar Lighting Limited OX16 3JZ,OX16 3JZ,52.076466,-1.321995,205
John Lewis  MK14 5BT,MK14 5BT,52.068589,-0.738514,206
Cromwell Tools LE18 2FS,LE18 2FS,52.584787,-1.1234,207
Shires Equestrian HR6 0QF,HR6 0QF,52.21927,-2.73208,208
Stirlandpaterson DE7 4RA,DE7 4RA,52.951626,-1.301385,209
Holland and Barrett (DE14 2WP),DE14 2WP,52.799825,-1.660129,210
Leicester LD,LE3 1TU,52.632202,-1.210434,211
Carnal Logistics,BT1 1AA,54.602444,-5.922291,212
Amazon Rugby (BHX5)   CV23 0WE,CV23 0WE,52.401688,-1.242488,213
Amazon Daventry (BHX3) NN11 8QL,NN11 8QL,52.268357,-1.187742,214
Worcester LD,WR4 9XN,52.216301,-2.194024,215
Tyldesley DO,M29 8AA,53.514375,-2.465188,216
Cambridge Weight Plan Ltd (NN17 5JE),NN17 5JE,52.501877,-0.652295,217
Nisbets Third Way BS11 9YL,BS11 9YL,51.505569,-2.688153,218
Poole LD,BH17 7AG,50.73699,-1.99384,219
Cromwell Tools LE8 6HP,LE8 6HP,52.562891,-1.182934,220
Avon Cosmetics (NN17 4AZ),NN17 4AZ,52.507005,-0.69285,221
Howard Tennets (LE17 4XW),LE17 4XW,52.456514,-1.24445,222
Lockhart Catering  (RG7 4XE),RG7 4XE,51.435085,-1.070043,223
White Stuff Ltd LE19 1SU,LE19 1SU,52.5941,-1.190266,224
Gardners Books Ltd (BN23 6QH),BN23 6QH,50.797013,0.289589,225
Gatwick LD,RH10 9ZX,51.14009,-0.167025,226
Ship It Appliances (M50 1RE),M50 1RE,53.482575,-2.322813,227
Leeds LD,LS10 1RD,53.772618,-1.505394,228
Milton Keynes LD,MK15 8HG,52.069016,-0.72948,229
DHL Cargo (DE74 2TR),DE74 2TR,52.826341,-1.348966,230
WH Smith B6 7BH,B6 7BH,52.51577,-1.872735,231
Briggs Industrial Footwear   LE4 9LE,LE4 9LE,52.661513,-1.088221,232
Oxford LD,OX5 1HP,51.827018,-1.300654,233
Hereford LD,Hr2 6LR,52.035634,-2.688872,234
UPS EMA Air Hub (DE74 2BQ),DE74 2BQ,52.828811,-1.382368,235
Exeter LD,EX2 8RL,50.705881,-3.52752,236
Solent LD,PO14 4LW,50.856676,-1.247525,237
Newcastle LD,DH2 1AE,54.87262,-1.583421,238
Exeter VOC,EX5 1EW,50.699308,-3.390899,239
Lincoln LD,LN6 3LQ,53.201943,-0.602964,240
London West LD,W3 0TH,51.522517,-0.278034,241
Norwich LD,NR2 4HJ,52.636516,1.285131,242
Cleveland LD,TS2 1RA,54.580524,-1.25485,243
Amazon Hinckley Park BHX7 (LE10 3FF),LE10 3FF,52.513946,-1.349446,244
Atherstone International,CV9 1FA,52.575737,-1.528231,245
Amazon EMA2 (NG17 NB),NG17 5NB,53.126085,-1.216663,246
Bleckmann (DE14 2AB),DE14 2AB,52.801158,-1.654898,247
Decathlon Logistics (NN4 7HT),NN4 7HT,52.222992,-0.849724,248
Downton Ltd GL2 4PA,GL2 4PA,51.807523,-2.292948,249
Sky Broadband CV21 1DZ,CV21 1DZ,52.39126,-1.261257,250
Red Funnel SO14 2AQ,SO14 2AQ,50.895452,-1.404993,251
Southampton VOC,SO40 4BX,50.897196,-1.439277,252
GXO Logistics (DE7 6HE),DE7 6HE,52.962223,-1.356578,253
Amazon Coventry  (BHX4)  CV5 9DQ,CV5 9DQ,52.436495,-1.552548,254
Bathgate DO,EH48 2EP,55.883608,-3.62767,255
Perth Hub,PH1 1AA,56.403073,-3.447403,256
Edinburgh East DO,EH7 6XD,55.955697,-3.12516,257
Glenrothes DO,KY7 4NY,56.187852,-3.147189,258
Kirkcaldy DO,KY2 5ZX,56.111855,-3.172216,259
Grangemouth DO,FK3 8AA,56.019483,-3.724824,260
Stirling DO,FK7 7XX,56.115675,-3.918918,261
Dundee West DO,DD2 3UX,56.483318,-3.012046,262
East Midlands VOC,DE74 2SA,52.824724,-1.331344,263
Barnard Castle DO,DL12 8AX,54.554294,-1.922058,264
Sports Direct (NG20 8RY),NG20 8RY,53.196935,-1.204027,265
Opex Logistics,GL2 4LY,51.833797,-2.276296,266
Dimensions (NG10 1FZ),NG10 1FZ,52.888549,-1.267185,267
Thorntons Chocolates DE55 4XJ,DE55 4XJ,53.086103,-1.388927,268
Eden Springs UK Ltd,BL2 6RT,53.573171,-2.363084,269
Amazon Derby  (EMA1)  DE74 2DL ,DE74 2DL,52.834983333333334,-1.32005,270
Clifton NG DO,NG11 8AA,52.903211,-1.177778,271
Coloured Rocks B98 9HF,B98 9HF,52.313416,-1.895109,272
Joma Jewellery (OX16 2SP),OX16 2SP,52.079698,-1.338683,273
Bulwell DO,NG6 8DZ,52.992378,-1.18844,274
Amazon Glenfield (XLH1 )  LE3 8JS,LE3 8JS,52.641746,-1.21409,275
Coventry South DO,CV3 4RP,52.380547,-1.463605,276
Linneys Suppliers/ITS (EN11 0DY),EN11 0DY,51.763493,0.005163,277
Living On Line NG10 5AD,NG10 5AD,52.920839,-1.286531,278
Flowerline NG21 0RU,NG21 0RU,53.104633,-1.11109,279
Cornwall LD,PL31 2RQ,50.47824,-4.703933,280
Torquay DO,TQ2 7TA,50.484772,-3.549698,281
Newton Abbot DO,TQ12 4BT,50.528625,-3.598642,282
Harrier TQ12 4UH,TQ12 4UH,50.53167,-3.59595,283
Bideford DO,EX39 2EX,51.020169,-4.204198,284
Barnstaple DO,EX32 8XX,51.079988,-4.055789,285
Dorset Mail Centre,BH17 0AA,50.746663,-1.973939,286
Truro Mail Centre,TR1 1AA,50.255282,-5.046106,287
Plymouth Mail Centre,PL9 7XX,50.3639,-4.106063,288
Plymouth LD,PL6 7BQ,50.447532,-4.110818,289
Falmouth DO,TR11 4TT,50.152111,-5.100402,290
Paragon DC - Whistl Fulfilment (LE17 4XZ),LE17 4XZ,52.447401,-1.236572,291
Cumbernauld DO,G67 1AZ,55.95191,-3.983658,292
Ayr DO,KA7 1AA,55.462701,-4.633662,293
Troon DO,KA10 6AX,55.54424,-4.661812,294
Gatwick Mail Centre,RH10 9AA,51.138767,-0.169851,295
Hove DO,BN3 3UG,50.834409,-0.168063,296
Westham DO,BN24 5NA,50.81256,0.322531,297
Brighton DO,BN1 1AA,50.826334,-0.140818,298
Eastbourne DO,BN21 1AA,50.769353,0.278764,299
Seaford DO,BN25 1LR,50.771565,0.10087,300
Lewes DO,BN7 2XZ,50.879369,0.016199,301
Hailsham DO,BN27 1DG,50.862667,0.257404,302
Littlehampton DO,BN16 3DS,50.820402,-0.509444,303
Accelerated Mailing RH15 8QY,RH15 8QY,50.966454,-0.136242,304
International PSC,TW14 8EE,51.443642,-0.43378,305
Burgess Hill DO,RH15 9TS,50.954052,-0.154065,306
Goring On Sea DO,BN12 4QT,50.814709,-0.423219,307
Pure Ltd (RH15 9TJ),RH19 9TJ,51.125869,-0.009715,308
Hassocks DO,RH15 9TS,50.954052,-0.154065,309
Gaugemaster (BN18 0BF),BN18 0BF,50.812896,-0.584134,310
Hastings DO,TN34 1AD,50.857815,0.575842,311
Horsham DO,RH12 1EA,51.067519,-0.3217,312
The Body Shop  BN17 6LS ,BN17 6LS ,50.821165,-0.527753,313
DFS Worldwide,TW14 0AN,51.459058,-0.409933,314
Woking Storage,GU21 3BA,51.324511,-0.585044,315
Aldershot LD,GU12 4QR,51.248182,-0.741573,316
Canterbury DO,CT1 1AA,51.284437,1.094448,317
Tonbridge DO,TN9 1AA,51.190126,0.286996,318
Polegate DO,BN26 6AA,50.823418,0.244804,319
Henfield DO,BN5 9ZZ,50.916207,-0.26454,320
Lancing DO,BN15 9AA,50.82806,-0.32221,321
Hitchin DO,SG1 1AA,51.896084,-0.203001,322
Letchworth DO,SG6 2YY,51.981602,-0.209223,323
Watford DO,WD18 8FQ,51.64175,-0.427895,324
Globexair   UB2 5LF,UB2 5LF,51.500315,-0.403297,325
Dunstable DO,LU6 1JH,51.887753,-0.523993,326
Tottenham DO,N17 6PT,51.59386,-0.071604,327
Wurth Uk Ltd DA18 4AE,DA18 4AE,51.493627,0.143944,328
ML Accessories (LU5 4LT),LU5 4LT,51.891694,-0.511352,329
Perfume Shop (LU5 4RZ),LU5 4RZ,51.893945,-0.518006,330
Levi Strauss  (NN4 9BA),NN4 9BA,52.213447,-0.95105,331
Wednesbury Branch Direct Hub,WS10 7DG,52.560356,-2.027172,332
Business  Design  Centre N1 0QH,N1 0QH,51.535509,-0.105346,333
GXO Abercrombie & Fitch (NN10 0FN),NN10 0FN,52.299397,-0.589479,334
XPO Logistics M50 1RE,M50 1RE,53.482575,-2.322813,335
Medway LD,ME8 0PP,51.365326,0.57795,336
Reading LD,RG2 0JD,51.442306,-0.97842,337
Amazon Rochester (LCY8) (ME3 9GX),ME3 9GX,51.433506,0.607356,338
East London PSC,RM20 3ED,51.471759,0.275049,339
Slough DO,SL1 1AA,51.508271,-0.584618,340
Uxbridge DO,UB8 2GG,51.537324,-0.487355,341
Transworld TW5 9QA,TW5 9QA,51.486238,-0.401023,342
Speciality Drinks Ltd NW10 7SU,NW10 7SU,51.531726,-0.274428,343
Norwich Mail Centre,NR1 1AA,52.62665,1.309339,344
Guildford DO,GU1 1AA,51.245283,-0.582332,345
Swindon Mail Centre,SN3 5TG,51.552032,-1.722576,346
Swindon WBC,SN3 5HG,51.551194,-1.725769,347
Gee Force Logistics (LE8 6LH),LE8 6LH,52.565554,-1.181946,348
Evre Limited UB2 4BD,UB2 4BD,51.504088,-0.371688,349
The Jewellery Channel TW13 7HF,TW13 7HF,51.438624,-0.409024,350
London Camden DO,NW1 1AA,51.530784,-0.13543,351
WRT RDC Delivery,WA2 8AA,53.404444,-2.600338,352
Maidenhead DO,SL6 1AA,51.518545,-0.714794,353
London South West LD,SM3 9QN,51.376089,-0.20834,354
BFPO Northolt HA4 6DQ,HA4 6DQ,51.551976,-0.409399,355
Swissport TW6 3LW,TW6 3LW,51.458642,-0.465113,356
Dnata Cargo Westpoint (TW19 7LX),TW19 7LX,51.457547,-0.469439,357
Linnells  CM3 3BE,CM3 3BE,51.789901,0.520945,358
Twinmar Ltd (HP2 7EA),HP2 7EA,51.769781,-0.438385,359
DHL Globalmatch SL3 8AG,SL3 8AG,51.494079,-0.535183,360
OCS SL3 0AY,SL3 0AY,51.47157,-0.517363,361
Amazon Seko  TW20 8EY,TW20 8EY,51.415426,-0.533312,362
J A S Forwarding (TW14 8EE),TW14 8EE,51.443642,-0.43378,363
Mint Velvet (MK10 0BB),MK10 0BB,52.032513,-0.690315,364
Amazon Swindon BRS2 (SN3 4DB),SN3 4DB,51.579106,-1.718733,365
Sainsburys Distribution Bedford (MK43 9AA),MK43 9AA,52.099318,-0.504508,366
Inverness Mail Centre,IV1 1SG,57.487786,-4.213664,367
Forres DO,IV36 1ZZ,57.608473,-3.621857,368
Fort William DO,PH33 6AA,56.818899,-5.110051,369
Kyle DO,IV40 8AA,57.28179,-5.71302,370
Portree DO,IV51 9AA,57.418267,-6.210478,371
Inverness LD,IV1 1AD,57.487251,-4.225728,372
Alnwick DO,NE66 2DD,55.401083,-1.697717,373
Elgin DO,IV30 1AA,57.647231,-3.321455,374
Thurso DO,KW14 7AL,58.593324,-3.521835,375
Nairn DO,IV12 4QU,57.582697,-3.870754,376
Monsoon  Ltd NN8 2DH,NN8 2DH,52.29017,-0.667981,377
Portsmouth DO,PO3 5GG,50.833015,-1.067904,378
Tyneside Mail Centre,NE11 0YY,54.941793,-1.61491,379
Pharmacy 2U (LE67 1GQ),LE67 1GQ,52.695343,-1.350602,380
Advanced Direct DY2 9RE,DY2 9RE,52.485294,-2.07818,381
Book Brothers (Price Cut Books Ltd)(LE4 1ET),LE4 1BR,52.66971,-1.154599,382
Wincanton DO,BA9 9ZZ,51.057353,-2.409923,383
The White Company NN4 9BB,NN4 9BB,52.219221,-0.947519,384
House Of Fraser MK15 0DB,MK15 0DB,52.0641,-0.7231,385
DK Fulfilment CV6 5RE,CV6 5RE,52.433153,-1.493181,386
Fedex Express,TW14 0SL,51.463135,-0.406271,387
Heysham (S),LA3 2XF,54.036663,-2.913799,388
Amazon Coalville (SNG1) LE67 1PD,LE67 1PD,52.698709,-1.333505,389
Winit LE3 8DX,LE3 8DX,52.649403,-1.216377,390
Amethyst Logistics (2B&C Logistics ) (CV35 9JY),CV35 9JY,52.189902,-1.607106,391
River Island - Clipper Logistics PLC (NG22 9LD),NG22 9LD,53.207715,-0.974893,392
Fairway Logistics SL3 8DS,SL3 8DS,51.507319,-0.541257,393
Synergy (RH15 9NB),RH15 9NB,50.952695,-0.142244,394
W H Peacock (MK42 0PE),MK42 0PE,52.120368,-0.430325,395
Orange Connex Global (SF Express) (WS8 7DG),WS8 7DG,52.634631,-1.932446,396
Milton Keynes PSC,MK17 8EW,52.043923,-0.665362,397
New Look (ST5 9QG),ST5 9QG,53.031243,-2.253837,398
Guernsey Airport,GY8 0DS,49.429550000000006,-2.6209499999999997,399
IFORCE JOHN LEWIS (NN18 8ET),NN18 8ET,52.486644,-0.667253,400
Atherstone PSC,CV9 1FA,52.575737,-1.528231,401
Manchester VOC,M1 2NG,53.477591,-2.222579,402
Amazon Altrincham (MAN1) (M90 5AA),M90 5AA,53.359064,-2.295164,403
Data Image Group Ltd LE19 2GP,LE19 2GP,52.570085,-1.216475,404
Manchester Branch Direct Hub,M12 6HH,53.473393,-2.227845,405
Amazon Warrington (MAN2) WA5 3XA,WA5 3XA,53.406693,-2.659532,406
Amazon Knowsley (LPL2) (L33 7AP,L33 7AP,53.487946,-2.860515,407
Coulby Newham DO,TS8 0UD,54.521793,-1.223367,408
Pinnacle Health Ltd PE7 3EL,PE7 3EL,52.527069,-0.241288,409
South Shields DO,NE33 5BY,54.988284,-1.442307,410
Darlington DO,DL1 1AA,54.522095,-1.550751,411
Sunderland DO,SR5 2TG,54.918376,-1.420249,412
Amazon Durham MME2 (DH6 5FG),DH6 5NP,54.727922,-1.523024,413
Stockton On Tees DO,TS19 0BJ,54.571607,-1.320119,414
Newcastle Upon Tyne City DO,NE1 1AD,54.96746,-1.615383,415
North Tyneside DO,NE29 8YY,55.018204,-1.490329,416
Amazon Gateshead (NCL1 DNE2)   ,NE10 8YA,54.936258,-1.519038,417
Metromail SR7 7DN,SR7 7DN,54.822278,-1.333673,418
Hartlepool DO,TS24 7AA,54.681571,-1.21038,419
Northallerton DO,DL7 8JY,54.337216,-1.434127,420
Great Yarmouth DO,NR30 1AA,52.612418,1.724617,421
Bowthorpe DO,NR5 9PD,52.641621,1.217785,422
Lowestoft DO,NR32 2ER,52.479292,1.733268,423
Cotswold Outdoor SN16 9SH,SN16 9SH,51.656223,-2.054623,424
Yours Clothing (PE2 6XU),PE2 6XU,52.540199,-0.316943,425
Delicious Marketing M17 1NR,M17 1NR,53.469246,-2.315889,426
Haydock Trailer Park,WA11  9UX,53.474825,-2.648142,427
Prestige Flowers CO15 4AD,CO15 4AD,51.803979,1.164669,428
Wigan DO,WN1 1AA,53.546967,-2.635089,429
Express Gifts Returns M35 0HJ,M35 0HJ,53.505733,-2.167196,430
The Hut Group (THG) (WA5 3TP),WA5 3TP,53.41195,-2.659507,431
Altrincham DO,WA15 8AA,53.385798,-2.338499,432
B Fashion Ltd LE11 1HL,LE11 1HL,52.781453,-1.198456,433
Wenritt (BL3 5PT),BL3 5PT,53.572695,-2.452735,434
Rossendale DO,BB4 7LU,53.702006,-2.284443,435
Kleeneze OL10 2TT,OL10 2TT,53.581329,-2.238981,436
Askews and Holt Library Services (PR1 1SY),PR1 1SY,53.765338,-2.698152,437
Crewe DO,CW1 6AR,53.087051,-2.430554,438
Jackson Art Supplies (GL2 2FN),GL2 2FN,51.816513,-2.273463,439
JD Sports,OL16 4FW,53.607251,-2.12909,440
Oakwood Dist BL5 3XU,BL5 3XU,53.555966,-2.533663,441
Amazon Doncaster (LBA4) DN11 0BF,DN11 0BF,53.481335,-1.103527,442
Woodstock Trading HR2 6LB,HR2 6LB,52.040194,-2.68397,443
Hyde DO,SK14 1AA,53.451902,-2.078805,444
Congleton DO,CW12 4ZZ,53.167119,-2.229,445
RS Components CV10 7RS,CV10 7RS,52.500857,-1.484514,446
Fulfilment Warehouse GL54 2HQ,GL54 2HQ,51.893717,-1.752464,447
PFS GLOBAL SO18 - Pandora,SO18 2NQ,50.925650000000005,-1.3684,448
Doncaster DO,DN4 5NE,53.512914,-1.125573,449
Stockport Central DO,SK4 2HQ,53.411928,-2.175599,450
Bramhall DO,SK7 1AA,53.356375,-2.165514,451
Liverpool South DO,L3 4XX,53.380314,-2.976431,452
Deeside DO,CH5 2ZA,53.208659,-3.017188,453
Cambridge DO,CB1 7QQ,52.192254,0.137179,454
Boston DO,PE21 6AB,52.973869,-0.021269,455
Skegness DO,PE25 2AA,53.14435,0.335996,456
Peterborough DO,PE4 5PE,52.613357,-0.286193,457
Geodis Wilson UK Ltd (TW15 1XS),TW15 1XS,51.4317,-0.4576,458
Warners PE10 9PH,PE10 9PH,52.767564,-0.382108,459
Kings Lynn DO,PE30 1AA,52.757433,0.400602,460
Oxford University Press (OUP) NN14 1UA,NN14 1UA,52.4228,-0.733547,461
Russell Hume L24 9JT,L24 9JT,53.352089,-2.848041,462
Sleaford DO,NG34 7AA,52.996313,-0.409437,463
Hotel Chocolat PE29 7HF,PE29 7HF,52.34341,-0.182599,464
Jellycat (CB21 4SF),CB21 4SF,52.125402,0.387006,465
Grantham DO,NG31 6AA,52.909668,-0.64064,466
Penzance DO,TR18 2NY,50.118867,-5.539592,467
St Austell DO,PL25 3PP,50.341347,-4.758965,468
St Ives PE DO,PE27 5AA,52.3325,-0.075,469
Bristol Branch Direct Hub,BS37 5YT,51.538272,-2.441985,470
Browns Group,ST6 4NU,53.053846,-2.220223,471
Harrow DO,UB6 0TP,51.547351,-0.351748,472
Ashtead DO,KT22 7AE,51.296062,-0.333705,473
West Wimbledon DO,SW19 4BB,51.416892,-0.213289,474
Blackpool DO,FY2 0XX,53.855192,-3.020227,475
Chorley DO,PR6 0UU,53.653199,-2.625216,476
Burnley DO,BB11 1DY,53.79093,-2.240888,477
Southport DO,PR8 4ZZ,53.626988,-2.985822,478
Toolstation TA6 4RN,TA6 4RN,51.148585,-2.994789,479
Bolton North DO,BL1 8XX,53.588488,-2.425425,480
Kilmarnock DO,KA1 3AA,55.599196,-4.493148,481
Shotts DO,ML2 0YY,55.772547,-3.948483,482
Paisley DO,PA3 1TN,55.848407,-4.438248,483
Inverclyde DO,PA15 4RD,55.94264,-4.741932,484
BT Returns (KY7 4UA),KY7 4UA,56.179828,-3.151269,485
NRG Direct Mail Ltd  SY21 7DF,SY21 7DF,52.653471,-3.139794,486
Amazon Dunfermline (EDI4) KY11 8ST,KY11 8ST,56.063851,-3.390704,487
Oban DO,PA34 4AA,56.411224,-5.47466,488
Glasgow PFW AP Site,G68 0BP,55.95783333333333,-4.013866666666667,489
Sevenoaks DO,TN13 1AA,51.270282,0.191708,490
Belvedere DO,DA1 1AA,51.4447,0.20962,491
Andover DO,SP10 1AA,51.206329,-1.48174,492
Maidstone DO,ME15 9EE,51.237695,0.563657,493
Bexleyheath DO,DA7 4BS,51.463202,0.134729,494
Ramsgate DO,CT11 7RA,51.339913,1.405812,495
Ashford TN DO,TN23 1AB,51.146561,0.875617,496
Medway Valley DO,ME6 5GP,51.326341,0.446642,497
Buy Whole Foods On Line Ltd (CT12 4HY),CT12 4HY,51.340822,1.324433,498
West Thurrock Branch Direct Hub,RM20 3FJ,51.47832,0.269212,499
Rainham ME DO,ME8 0QN,51.365778,0.576251,500
Chatham DO,ME4 4AA,51.380607,0.525518,501
Bracknell DO,RG12 1GJ,51.416007,-0.770736,502
Basingstoke DO,RG24 9AA,51.277326,-1.107874,503
Reading West DO,RG30 1DZ,51.461564,-0.999021,504
Banbury DO,OX16 4AA,52.061525,-1.327429,505
Oxford East DO,OX4 6HA,51.722612,-1.213408,506
Pangbourne DO,RG8 7AA,51.483505,-1.08734,507
Reading East DO,RG6 1AA,51.457625,-0.945636,508
Abingdon DO,OX14 5AD,51.66921,-1.287703,509
Witney DO,OX28 4WS,51.776948,-1.485118,510
Bicester DO,OX26 4ZZ,51.901771,-1.14152,511
Oxford DO,OX1 1XX,51.750231,-1.267367,512
Newbury DO,RG14 5BS,51.40007,-1.322045,513
Thatcham DO,RG19 4ZZ,51.393977,-1.244596,514
Swindon Trailer Park,SN3 4TQ,51.598908,-1.736007,515
Chippenham DO,SN14 6EX,51.464891,-2.144161,516
Nationwide SN2 1EL,SN2 1EL,51.565755,-1.793675,517
Epsom Branch Direct Hub,KT17 1EG,51.33918,-0.257585,518
Ryde DO,PO33 1BH,50.717602,-1.157821,519
Newport IOW DO,PO30 5AN,50.706999,-1.294717,520
Sandown DO,PO36 8LR,50.653483,-1.157062,521
West Coast Ltd (RG7 4AH),RG7 4AH,51.43273,-1.070399,522
Amazon  Methley DSA6 (LS26 9FT),LS26 9FT,53.727407,-1.447757,523
Amazon Nottingham (EMA3)  NG16 3UA,NG16 3UA,53.022455,-1.321573,524
Amazon Doncaster (LBA2) DN11 0BG,DN11 0BG,53.473797,-1.105238,525
Hull Malmo Road DO,HU7 0AA,53.777169,-0.343274,526
AMAZON LBA5,LS9 0DZ,53.77745,-1.48569,527
North East PSC VOC,S9 1TQ,53.400669,-1.386853,528
UK Greetings Cannon Way (WF13 1XH),WF13 1XH,53.685478,-1.635996,529
UK Greetings Bretton Park (WF12 9BS),WF12 9BS,53.676453,-1.622104,530
HOBBYCRAFT (DE14 2WA),DE14 2WA,52.796304,-1.664615,531
York LD,YO26 6QS,53.976411,-1.136282,532
Amazon  Chesterfild (MAN4)  S43 4PZ,S43 4PZ,53.281271,-1.286048,533
Leeds Branch Direct Hub,LS10 1RD,53.772618,-1.505394,534
Weston Super Mare DO,BS23 3PR,51.343881,-2.957023,535
Taunton DO,TA1 1AA,51.023442,-3.109646,536
Gloucester North DO,GL3 4EE,51.839243,-2.167993,537
Frome DO,BA11 3EW,51.234289,-2.333906,538
Bath DO,BA1 1AA,51.378849,-2.355562,539
Gardiner Bros (GL2 4PH),GL2 4PH,51.807617,-2.291092,540
Supersmart Site 3  (WS13 8NQ),WS13 8NQ,52.709875,-1.777641,541
Paragon Bristol (BS32 0GE),BS32 0GE,51.546615,-2.552547,542
Westbury DO,BA13 4EZ,51.270282,-2.205976,543
Trowbridge DO,BA14 8DA,51.320879,-2.205399,544
PFS Global,PO15 5TT,50.865665,-1.244169,545
Neopost Technologies Ltd IG10 3TZ,IG10 3TZ,51.64282,0.078302,546
Bristol Fishponds DO,BS16 3ZZ,51.47846,-2.526524,547
Bristol East Central DO,BS2 8AA,51.458456,-2.574166,548
Bootle and Seaforth DO,L20 6JH,53.469219,-2.969084,549
Mosaic Fulfilment Solutions (CW7 3PZ),CW7 3PZ,53.192903,-2.493517,550
Staines DO,TW20 8RS,51.416074,-0.531206,551
Camberley DO,GU15 3HA,51.330863,-0.766641,552
Game Digital RG21 6YJ,RG21 6YJ,51.272315,-1.108688,553
Marcol Limited,LE12 5AG,52.785473,-1.125141,554
Feltham DO,TW13 7HH,51.439532,-0.408345,555
Stoke on Trent DO,ST4 2AX,53.008009,-2.178826,556
Shred It (SN3 4WB),SN3 4WB,51.602033,-1.730285,557
Palletways  (WS13 8NE),WS13 8NE,52.711207,-1.784347,558
First Mailing MK3 7QT,MK3 7QT,52.011129,-0.750534,559
Lincoln DO,LN5 7NU,53.224065,-0.545233,560
Manvers DO,S63 5AA,53.504366,-1.329045,561
Wakefield DO,WF1 1AA,53.679473,-1.500929,562
Granby Marketing BB1 3BW,BB1 3BW,53.754885,-2.461653,563
Scunthorpe DO,DN15 7AA,53.585882,-0.654585,564
Sheffield City DO,S1 1AA,53.381455,-1.464295,565
Birch Park DO,YO31 9XX,53.978369,-1.065317,566
Immingham DO,DN40 1BL,53.621033,-0.196998,567
Grimsby DO,DN31 3AR,53.572172,-0.077361,568
Hull Central DO,HU9 1AA,53.744072,-0.326561,569
The Very Group  (DE74 2BB),DE74 2BB,52.834884,-1.31581,570
PD Bannister,BD4 6SX,53.764803,-1.713921,571
Hughes Electrical (IP24 1HT),IP24 1HT,52.426743,0.744247,572
Bradford South DO,BD5 7RS,53.781901,-1.756191,573
York Central DO,YO26 4ZZ,53.96043,-1.092336,574
Goole DO,DN14 6DA,53.701711,-0.895218,575
